COMMAND_ACK {command : 400, result : 0, progress : 0, result_param2 : 0, target_system : 255, target_component : 0}
ATTITUDE {time_boot_ms : 118095, roll : 0.0003437836712691933, pitch : 0.31067630648612976, yaw : -3.140509843826294, rollspeed : -0.0027872505597770214, pitchspeed : -0.01939920336008072, yawspeed : 0.0008563856827095151}
HIGHRES_IMU {time_usec : 118095644, xacc : -3.055159330368042, yacc : 0.06823097914457321, zacc : -9.322213172912598, xgyro : -0.0027872505597770214, ygyro : -0.01939920336008072, zgyro : 0.0008563856827095151, xmag : nan, ymag : nan, zmag : nan, abs_pressure : nan, diff_pressure : nan, pressure_alt : nan, temperature : nan, fields_updated : 63, id : 0}
ACTUATOR_OUTPUT_STATUS {time_usec : 118095644, active : 15, actuator : [0.05000000074505806, 0.05000000074505806, 0.05000000074505806, 0.05000000074505806, 0.0, 0.0, 0.0, 0.0, 0.0, 0.0, 0.0, 0.0, 0.0, 0.0, 0.0, 0.0, 0.0, 0.0, 0.0, 0.0, 0.0, 0.0, 0.0, 0.0, 0.0, 0.0, 0.0, 0.0, 0.0, 0.0, 0.0, 0.0]}
ODOMETRY {time_usec : 118095644, frame_id : 1, child_frame_id : 8, x : -0.00046874998952262104, y : 4.8828122089616954e-05, z : 0.020595703274011612, q : [0.0005082173156552017, -0.15471427142620087, 8.619175059720874e-05, -0.987959086894989], vx : -0.0011505922302603722, vy : 0.00015179238107521087, vz : 0.0010313506936654449, rollspeed : -0.0027872505597770214, pitchspeed : -0.01939920336008072, yawspeed : 0.0008563856827095151, pose_covariance : [nan, 0.0, 0.0, 0.0, 0.0, 0.0, 0.0, 0.0, 0.0, 0.0, 0.0, 0.0, 9.80908925027372e-45, -0.0, -351.609375, 5.310921179791057e-43, 0.0, 0.0, 1.7263997080481746e-42, 1.1770907100328463e-43, 0.0], velocity_covariance : [nan, 0.0, 0.0, 0.0, 2.3079385707429737e-42, 0.0, 10432.0, 4.591634678053128e-41, -1.6281160740754e+38, 1.1770907100328463e-43, 0.0, 0.0, -1.6280803770344976e+38, 1.1770907100328463e-43, 0.0, 0.0, 0.0, 0.0, nan, nan, 0.0], reset_counter : 0, estimator_type : 2, quality : 100}
LOCAL_POSITION_NED {time_boot_ms : 118095, x : -0.00046874998952262104, y : 4.8828122089616954e-05, z : 0.020595703274011612, vx : 0.0014109447365626693, vy : -0.0001506197004346177, vz : 0.0006301879766397178}
ATTITUDE {time_boot_ms : 118095, roll : 0.0003437836712691933, pitch : 0.31067630648612976, yaw : -3.140509843826294, rollspeed : -0.0027872505597770214, pitchspeed : -0.01939920336008072, yawspeed : 0.0008563856827095151}
HIGHRES_IMU {time_usec : 118095644, xacc : -3.055159330368042, yacc : 0.06823097914457321, zacc : -9.322213172912598, xgyro : -0.0027872505597770214, ygyro : -0.01939920336008072, zgyro : 0.0008563856827095151, xmag : nan, ymag : nan, zmag : nan, abs_pressure : nan, diff_pressure : nan, pressure_alt : nan, temperature : nan, fields_updated : 63, id : 0}
ACTUATOR_OUTPUT_STATUS {time_usec : 118095644, active : 15, actuator : [0.05000000074505806, 0.05000000074505806, 0.05000000074505806, 0.05000000074505806, 0.0, 0.0, 0.0, 0.0, 0.0, 0.0, 0.0, 0.0, 0.0, 0.0, 0.0, 0.0, 0.0, 0.0, 0.0, 0.0, 0.0, 0.0, 0.0, 0.0, 0.0, 0.0, 0.0, 0.0, 0.0, 0.0, 0.0, 0.0]}
LOCAL_POSITION_NED {time_boot_ms : 118095, x : -0.00046874998952262104, y : 4.8828122089616954e-05, z : 0.020595703274011612, vx : 0.0014109447365626693, vy : -0.0001506197004346177, vz : 0.0006301879766397178}
ATTITUDE {time_boot_ms : 118095, roll : 0.0003437836712691933, pitch : 0.31067630648612976, yaw : -3.140509843826294, rollspeed : -0.0027872505597770214, pitchspeed : -0.01939920336008072, yawspeed : 0.0008563856827095151}
HIGHRES_IMU {time_usec : 118095644, xacc : -3.055159330368042, yacc : 0.06823097914457321, zacc : -9.322213172912598, xgyro : -0.0027872505597770214, ygyro : -0.01939920336008072, zgyro : 0.0008563856827095151, xmag : nan, ymag : nan, zmag : nan, abs_pressure : nan, diff_pressure : nan, pressure_alt : nan, temperature : nan, fields_updated : 63, id : 0}
ODOMETRY {time_usec : 118095644, frame_id : 1, child_frame_id : 8, x : -0.00046874998952262104, y : 4.8828122089616954e-05, z : 0.020595703274011612, q : [0.0005082173156552017, -0.15471427142620087, 8.619175059720874e-05, -0.987959086894989], vx : -0.0011505922302603722, vy : 0.00015179238107521087, vz : 0.0010313506936654449, rollspeed : -0.0027872505597770214, pitchspeed : -0.01939920336008072, yawspeed : 0.0008563856827095151, pose_covariance : [nan, 0.0, 0.0, 0.0, 0.0, 0.0, 0.0, 0.0, 0.0, 0.0, 0.0, 0.0, 9.80908925027372e-45, -0.0, -351.609375, 5.310921179791057e-43, 0.0, 0.0, 1.7263997080481746e-42, 1.1770907100328463e-43, 0.0], velocity_covariance : [nan, 0.0, 0.0, 0.0, 2.3079385707429737e-42, 0.0, 10432.0, 4.591634678053128e-41, -1.6281160740754e+38, 1.1770907100328463e-43, 0.0, 0.0, -1.6280803770344976e+38, 1.1770907100328463e-43, 0.0, 0.0, 0.0, 0.0, nan, nan, 0.0], reset_counter : 0, estimator_type : 2, quality : 100}
ACTUATOR_OUTPUT_STATUS {time_usec : 118095644, active : 15, actuator : [0.05000000074505806, 0.05000000074505806, 0.05000000074505806, 0.05000000074505806, 0.0, 0.0, 0.0, 0.0, 0.0, 0.0, 0.0, 0.0, 0.0, 0.0, 0.0, 0.0, 0.0, 0.0, 0.0, 0.0, 0.0, 0.0, 0.0, 0.0, 0.0, 0.0, 0.0, 0.0, 0.0, 0.0, 0.0, 0.0]}
ATTITUDE {time_boot_ms : 118095, roll : 0.0003437836712691933, pitch : 0.31067630648612976, yaw : -3.140509843826294, rollspeed : -0.0027872505597770214, pitchspeed : -0.01939920336008072, yawspeed : 0.0008563856827095151}
HIGHRES_IMU {time_usec : 118095644, xacc : -3.055159330368042, yacc : 0.06823097914457321, zacc : -9.322213172912598, xgyro : -0.0027872505597770214, ygyro : -0.01939920336008072, zgyro : 0.0008563856827095151, xmag : nan, ymag : nan, zmag : nan, abs_pressure : nan, diff_pressure : nan, pressure_alt : nan, temperature : nan, fields_updated : 63, id : 0}
LOCAL_POSITION_NED {time_boot_ms : 118095, x : -0.00046874998952262104, y : 4.8828122089616954e-05, z : 0.020595703274011612, vx : 0.0014109447365626693, vy : -0.0001506197004346177, vz : 0.0006301879766397178}
ODOMETRY {time_usec : 118095644, frame_id : 1, child_frame_id : 8, x : -0.00046874998952262104, y : 4.8828122089616954e-05, z : 0.020595703274011612, q : [0.0005082173156552017, -0.15471427142620087, 8.619175059720874e-05, -0.987959086894989], vx : -0.0011505922302603722, vy : 0.00015179238107521087, vz : 0.0010313506936654449, rollspeed : -0.0027872505597770214, pitchspeed : -0.01939920336008072, yawspeed : 0.0008563856827095151, pose_covariance : [nan, 0.0, 0.0, 0.0, 0.0, 0.0, 0.0, 0.0, 0.0, 0.0, 0.0, 0.0, 9.80908925027372e-45, -0.0, -351.609375, 5.310921179791057e-43, 0.0, 0.0, 1.7263997080481746e-42, 1.1770907100328463e-43, 0.0], velocity_covariance : [nan, 0.0, 0.0, 0.0, 2.3079385707429737e-42, 0.0, 10432.0, 4.591634678053128e-41, -1.6281160740754e+38, 1.1770907100328463e-43, 0.0, 0.0, -1.6280803770344976e+38, 1.1770907100328463e-43, 0.0, 0.0, 0.0, 0.0, nan, nan, 0.0], reset_counter : 0, estimator_type : 2, quality : 100}
ACTUATOR_OUTPUT_STATUS {time_usec : 118131815, active : 15, actuator : [0.05000000074505806, 0.05000000074505806, 0.05000000074505806, 0.05000000074505806, 0.0, 0.0, 0.0, 0.0, 0.0, 0.0, 0.0, 0.0, 0.0, 0.0, 0.0, 0.0, 0.0, 0.0, 0.0, 0.0, 0.0, 0.0, 0.0, 0.0, 0.0, 0.0, 0.0, 0.0, 0.0, 0.0, 0.0, 0.0]}
ATTITUDE {time_boot_ms : 118131, roll : 0.000348237925209105, pitch : 0.31068167090415955, yaw : -3.1405293941497803, rollspeed : 0.005226291716098785, pitchspeed : -0.01784191094338894, yawspeed : 0.00017574476078152657}
HIGHRES_IMU {time_usec : 118131815, xacc : 1.0620193481445312, yacc : -9.476337432861328, zacc : -9.1945161819458, xgyro : 0.005226291716098785, ygyro : -0.01784191094338894, zgyro : 0.00017574476078152657, xmag : nan, ymag : nan, zmag : nan, abs_pressure : nan, diff_pressure : nan, pressure_alt : nan, temperature : nan, fields_updated : 63, id : 0}
LOCAL_POSITION_NED {time_boot_ms : 118131, x : -0.00046874998952262104, y : 5.859374869032763e-05, z : 0.020595703274011612, vx : 0.0010399122256785631, vy : 0.0004280941211618483, vz : 0.0007142925169318914}
ATTITUDE {time_boot_ms : 118131, roll : 0.000348237925209105, pitch : 0.31068167090415955, yaw : -3.1405293941497803, rollspeed : 0.005226291716098785, pitchspeed : -0.01784191094338894, yawspeed : 0.00017574476078152657}
ACTUATOR_OUTPUT_STATUS {time_usec : 118131815, active : 15, actuator : [0.05000000074505806, 0.05000000074505806, 0.05000000074505806, 0.05000000074505806, 0.0, 0.0, 0.0, 0.0, 0.0, 0.0, 0.0, 0.0, 0.0, 0.0, 0.0, 0.0, 0.0, 0.0, 0.0, 0.0, 0.0, 0.0, 0.0, 0.0, 0.0, 0.0, 0.0, 0.0, 0.0, 0.0, 0.0, 0.0]}
HIGHRES_IMU {time_usec : 118131815, xacc : 1.0620193481445312, yacc : -9.476337432861328, zacc : -9.1945161819458, xgyro : 0.005226291716098785, ygyro : -0.01784191094338894, zgyro : 0.00017574476078152657, xmag : nan, ymag : nan, zmag : nan, abs_pressure : nan, diff_pressure : nan, pressure_alt : nan, temperature : nan, fields_updated : 63, id : 0}
ODOMETRY {time_usec : 118131815, frame_id : 1, child_frame_id : 8, x : -0.00046874998952262104, y : 5.859374869032763e-05, z : 0.020595703274011612, q : [0.0004982734099030495, -0.15471692383289337, 8.989370689960197e-05, -0.9879587292671204], vx : -0.0007721949368715286, vy : -0.00042733605368994176, vz : 0.0009979954920709133, rollspeed : 0.005226291716098785, pitchspeed : -0.01784191094338894, yawspeed : 0.00017574476078152657, pose_covariance : [nan, 0.0, 0.0, 0.0, 0.0, 0.0, 0.0, 0.0, 0.0, 0.0, 0.0, 0.0, 9.80908925027372e-45, -0.0, -351.609375, 5.310921179791057e-43, 0.0, 0.0, 1.7263997080481746e-42, 1.1770907100328463e-43, 0.0], velocity_covariance : [nan, 0.0, 0.0, 0.0, 2.3079385707429737e-42, 0.0, 10432.0, 4.591634678053128e-41, -1.6281160740754e+38, 1.1770907100328463e-43, 0.0, 0.0, -1.6280803770344976e+38, 1.1770907100328463e-43, 0.0, 0.0, 0.0, 0.0, nan, nan, 0.0], reset_counter : 0, estimator_type : 2, quality : 100}
LOCAL_POSITION_NED {time_boot_ms : 118148, x : -0.00046874998952262104, y : 4.8828122089616954e-05, z : 0.020595703274011612, vx : 0.0008662156760692596, vy : 0.0003464004257693887, vz : 0.0006306743598543108}
ENCAPSULATED_DATA {seqnr : 0, data : [1, 134, 205, 1, 0, 0, 0, 0, 0, 98, 81, 0, 0, 0, 0, 0, 0, 255, 255, 255, 255, 255, 255, 255, 255, 0, 0, 0, 0, 255, 255, 255, 255, 255, 255, 255, 255, 0, 0, 0, 0, 0, 0, 0, 0, 0, 0, 0, 0, 0, 0, 0, 0, 0, 0, 0, 0, 0, 0, 0, 0, 0, 0, 0, 0, 0, 0, 0, 0, 0, 0, 0, 0, 0, 0, 0, 0, 0, 0, 0, 0, 0, 0, 0, 0, 0, 0, 0, 0, 0, 0, 0, 0, 0, 0, 0, 0, 0, 0, 0, 0, 0, 0, 0, 0, 0, 0, 0, 0, 0, 0, 0, 0, 0, 0, 0, 0, 0, 0, 0, 0, 0, 0, 0, 0, 0, 0, 0, 0, 0, 0, 0, 0, 0, 0, 0, 0, 0, 0, 0, 0, 0, 0, 0, 0, 0, 0, 0, 0, 0, 0, 0, 0, 0, 0, 0, 0, 0, 0, 0, 0, 0, 0, 0, 0, 0, 0, 0, 0, 0, 0, 0, 0, 0, 0, 0, 0, 0, 0, 0, 0, 0, 0, 0, 0, 0, 0, 0, 0, 0, 111, 6, 0, 0, 0, 0, 0, 0, 0, 0, 35, 70, 255, 127, 0, 0, 32, 248, 183, 128, 84, 0, 0, 0, 0, 0, 0, 0, 0, 0, 0, 0, 192, 246, 183, 128, 84, 0, 0, 0, 0, 0, 0, 0, 0, 0, 0, 0, 0, 0, 0, 0, 0, 0, 0, 0, 255, 255, 255, 255, 255, 255, 255]}
ATTITUDE {time_boot_ms : 118148, roll : 0.00034170696744695306, pitch : 0.3106752634048462, yaw : -3.1405153274536133, rollspeed : 0.004273056518286467, pitchspeed : -0.014775782823562622, yawspeed : 0.00010443688370287418}
HIGHRES_IMU {time_usec : 118148090, xacc : 0.09437966346740723, yacc : -4.02435827255249, zacc : -10.321595191955566, xgyro : 0.004273056518286467, ygyro : -0.014775782823562622, zgyro : 0.00010443688370287418, xmag : nan, ymag : nan, zmag : nan, abs_pressure : nan, diff_pressure : nan, pressure_alt : nan, temperature : nan, fields_updated : 63, id : 0}
ACTUATOR_OUTPUT_STATUS {time_usec : 118154962, active : 15, actuator : [0.05000000074505806, 0.05000000074505806, 0.05000000074505806, 0.05000000074505806, 0.0, 0.0, 0.0, 0.0, 0.0, 0.0, 0.0, 0.0, 0.0, 0.0, 0.0, 0.0, 0.0, 0.0, 0.0, 0.0, 0.0, 0.0, 0.0, 0.0, 0.0, 0.0, 0.0, 0.0, 0.0, 0.0, 0.0, 0.0]}
ODOMETRY {time_usec : 118154962, frame_id : 1, child_frame_id : 8, x : -0.00046874998952262104, y : 4.8828122089616954e-05, z : 0.020600585266947746, q : [0.000502970302477479, -0.15472690761089325, 8.77566562849097e-05, -0.9879570603370667], vx : -0.0009435440879315138, vy : 0.00017927639419212937, vz : 0.0005921770934946835, rollspeed : -0.0036837628576904535, pitchspeed : -0.015396286733448505, yawspeed : 0.0007355171255767345, pose_covariance : [nan, 0.0, 0.0, 0.0, 0.0, 0.0, 0.0, 0.0, 0.0, 0.0, 0.0, 0.0, 9.80908925027372e-45, -0.0, -351.609375, 5.310921179791057e-43, 0.0, 0.0, 1.7263997080481746e-42, 1.1770907100328463e-43, 0.0], velocity_covariance : [nan, 0.0, 0.0, 0.0, 2.3079385707429737e-42, 0.0, 10432.0, 4.591634678053128e-41, -1.6281160740754e+38, 1.1770907100328463e-43, 0.0, 0.0, -1.6280803770344976e+38, 1.1770907100328463e-43, 0.0, 0.0, 0.0, 0.0, nan, nan, 0.0], reset_counter : 0, estimator_type : 2, quality : 100}
LOCAL_POSITION_NED {time_boot_ms : 118154, x : -0.00046874998952262104, y : 4.8828122089616954e-05, z : 0.020600585266947746, vx : 0.001079584239050746, vy : -0.0001783235347829759, vz : 0.00027529714861884713}
ATTITUDE {time_boot_ms : 118154, roll : 0.0003453418903518468, pitch : 0.31070181727409363, yaw : -3.1405200958251953, rollspeed : -0.0036837628576904535, pitchspeed : -0.015396286733448505, yawspeed : 0.0007355171255767345}
HIGHRES_IMU {time_usec : 118154962, xacc : -3.0446338653564453, yacc : 0.07308637350797653, zacc : -9.380037307739258, xgyro : -0.0036837628576904535, ygyro : -0.015396286733448505, zgyro : 0.0007355171255767345, xmag : nan, ymag : nan, zmag : nan, abs_pressure : nan, diff_pressure : nan, pressure_alt : nan, temperature : nan, fields_updated : 63, id : 0}
ACTUATOR_OUTPUT_STATUS {time_usec : 118162555, active : 15, actuator : [0.05000000074505806, 0.05000000074505806, 0.05000000074505806, 0.05000000074505806, 0.0, 0.0, 0.0, 0.0, 0.0, 0.0, 0.0, 0.0, 0.0, 0.0, 0.0, 0.0, 0.0, 0.0, 0.0, 0.0, 0.0, 0.0, 0.0, 0.0, 0.0, 0.0, 0.0, 0.0, 0.0, 0.0, 0.0, 0.0]}
ATTITUDE {time_boot_ms : 118162, roll : 0.0003464980982244015, pitch : 0.31067585945129395, yaw : -3.1405322551727295, rollspeed : 0.005201216321438551, pitchspeed : -0.02045091986656189, yawspeed : 0.00032693089451640844}
LOCAL_POSITION_NED {time_boot_ms : 118162, x : -0.00046874998952262104, y : 5.859374869032763e-05, z : 0.020600585266947746, vx : 0.0010946937836706638, vy : 0.0004583531408570707, vz : 0.00045931339263916016}
HIGHRES_IMU {time_usec : 118162555, xacc : -2.9933395385742188, yacc : -0.08708184957504272, zacc : -9.316681861877441, xgyro : 0.005201216321438551, ygyro : -0.02045091986656189, zgyro : 0.00032693089451640844, xmag : nan, ymag : nan, zmag : nan, abs_pressure : nan, diff_pressure : nan, pressure_alt : nan, temperature : nan, fields_updated : 63, id : 0}
ODOMETRY {time_usec : 118162555, frame_id : 1, child_frame_id : 8, x : -0.00046874998952262104, y : 5.859374869032763e-05, z : 0.020600585266947746, q : [0.0004969955189153552, -0.15471401810646057, 8.925719885155559e-05, -0.9879591464996338], vx : -0.0009023366728797555, vy : -0.0004574597696773708, vz : 0.0007719648419879377, rollspeed : 0.005201216321438551, pitchspeed : -0.02045091986656189, yawspeed : 0.00032693089451640844, pose_covariance : [nan, 0.0, 0.0, 0.0, 0.0, 0.0, 0.0, 0.0, 0.0, 0.0, 0.0, 0.0, 9.80908925027372e-45, -0.0, -351.609375, 5.310921179791057e-43, 0.0, 0.0, 1.7263997080481746e-42, 1.1770907100328463e-43, 0.0], velocity_covariance : [nan, 0.0, 0.0, 0.0, 2.3079385707429737e-42, 0.0, 10432.0, 4.591634678053128e-41, -1.6281160740754e+38, 1.1770907100328463e-43, 0.0, 0.0, -1.6280803770344976e+38, 1.1770907100328463e-43, 0.0, 0.0, 0.0, 0.0, nan, nan, 0.0], reset_counter : 0, estimator_type : 2, quality : 100}
ACTUATOR_OUTPUT_STATUS {time_usec : 118162555, active : 15, actuator : [0.05000000074505806, 0.05000000074505806, 0.05000000074505806, 0.05000000074505806, 0.0, 0.0, 0.0, 0.0, 0.0, 0.0, 0.0, 0.0, 0.0, 0.0, 0.0, 0.0, 0.0, 0.0, 0.0, 0.0, 0.0, 0.0, 0.0, 0.0, 0.0, 0.0, 0.0, 0.0, 0.0, 0.0, 0.0, 0.0]}
ATTITUDE {time_boot_ms : 118162, roll : 0.0003464980982244015, pitch : 0.31067585945129395, yaw : -3.1405322551727295, rollspeed : 0.005201216321438551, pitchspeed : -0.02045091986656189, yawspeed : 0.00032693089451640844}
HIGHRES_IMU {time_usec : 118162555, xacc : -2.9933395385742188, yacc : -0.08708184957504272, zacc : -9.316681861877441, xgyro : 0.005201216321438551, ygyro : -0.02045091986656189, zgyro : 0.00032693089451640844, xmag : nan, ymag : nan, zmag : nan, abs_pressure : nan, diff_pressure : nan, pressure_alt : nan, temperature : nan, fields_updated : 63, id : 0}
LOCAL_POSITION_NED {time_boot_ms : 118162, x : -0.00046874998952262104, y : 5.859374869032763e-05, z : 0.020600585266947746, vx : 0.0010946937836706638, vy : 0.0004583531408570707, vz : 0.00045931339263916016}
ODOMETRY {time_usec : 118162555, frame_id : 1, child_frame_id : 8, x : -0.00046874998952262104, y : 5.859374869032763e-05, z : 0.020600585266947746, q : [0.0004969955189153552, -0.15471401810646057, 8.925719885155559e-05, -0.9879591464996338], vx : -0.0009023366728797555, vy : -0.0004574597696773708, vz : 0.0007719648419879377, rollspeed : 0.005201216321438551, pitchspeed : -0.02045091986656189, yawspeed : 0.00032693089451640844, pose_covariance : [nan, 0.0, 0.0, 0.0, 0.0, 0.0, 0.0, 0.0, 0.0, 0.0, 0.0, 0.0, 9.80908925027372e-45, -0.0, -351.609375, 5.310921179791057e-43, 0.0, 0.0, 1.7263997080481746e-42, 1.1770907100328463e-43, 0.0], velocity_covariance : [nan, 0.0, 0.0, 0.0, 2.3079385707429737e-42, 0.0, 10432.0, 4.591634678053128e-41, -1.6281160740754e+38, 1.1770907100328463e-43, 0.0, 0.0, -1.6280803770344976e+38, 1.1770907100328463e-43, 0.0, 0.0, 0.0, 0.0, nan, nan, 0.0], reset_counter : 0, estimator_type : 2, quality : 100}
ACTUATOR_OUTPUT_STATUS {time_usec : 118162555, active : 15, actuator : [0.05000000074505806, 0.05000000074505806, 0.05000000074505806, 0.05000000074505806, 0.0, 0.0, 0.0, 0.0, 0.0, 0.0, 0.0, 0.0, 0.0, 0.0, 0.0, 0.0, 0.0, 0.0, 0.0, 0.0, 0.0, 0.0, 0.0, 0.0, 0.0, 0.0, 0.0, 0.0, 0.0, 0.0, 0.0, 0.0]}
ATTITUDE {time_boot_ms : 118162, roll : 0.0003464980982244015, pitch : 0.31067585945129395, yaw : -3.1405322551727295, rollspeed : 0.005201216321438551, pitchspeed : -0.02045091986656189, yawspeed : 0.00032693089451640844}
HIGHRES_IMU {time_usec : 118162555, xacc : -2.9933395385742188, yacc : -0.08708184957504272, zacc : -9.316681861877441, xgyro : 0.005201216321438551, ygyro : -0.02045091986656189, zgyro : 0.00032693089451640844, xmag : nan, ymag : nan, zmag : nan, abs_pressure : nan, diff_pressure : nan, pressure_alt : nan, temperature : nan, fields_updated : 63, id : 0}
LOCAL_POSITION_NED {time_boot_ms : 118162, x : -0.00046874998952262104, y : 5.859374869032763e-05, z : 0.020600585266947746, vx : 0.0010946937836706638, vy : 0.0004583531408570707, vz : 0.00045931339263916016}
HEARTBEAT {type : 2, autopilot : 0, base_mode : 193, custom_mode : 0, system_status : 4, mavlink_version : 3}
ATTITUDE {time_boot_ms : 118162, roll : 0.0003464980982244015, pitch : 0.31067585945129395, yaw : -3.1405322551727295, rollspeed : 0.005201216321438551, pitchspeed : -0.02045091986656189, yawspeed : 0.00032693089451640844}
HIGHRES_IMU {time_usec : 118198419, xacc : -1.633817195892334, yacc : -4.475416660308838, zacc : -8.658060073852539, xgyro : 0.004565148148685694, ygyro : -0.018402889370918274, zgyro : 0.00025045801885426044, xmag : nan, ymag : nan, zmag : nan, abs_pressure : nan, diff_pressure : nan, pressure_alt : nan, temperature : nan, fields_updated : 63, id : 0}
ACTUATOR_OUTPUT_STATUS {time_usec : 118198643, active : 15, actuator : [0.05000000074505806, 0.05000000074505806, 0.05000000074505806, 0.05000000074505806, 0.0, 0.0, 0.0, 0.0, 0.0, 0.0, 0.0, 0.0, 0.0, 0.0, 0.0, 0.0, 0.0, 0.0, 0.0, 0.0, 0.0, 0.0, 0.0, 0.0, 0.0, 0.0, 0.0, 0.0, 0.0, 0.0, 0.0, 0.0]}
ODOMETRY {time_usec : 118198643, frame_id : 1, child_frame_id : 8, x : -0.00046874998952262104, y : 4.8828122089616954e-05, z : 0.020600585266947746, q : [0.0005056228837929666, -0.15471772849559784, 8.62443630467169e-05, -0.9879586100578308], vx : -0.0010657926322892308, vy : 0.0001871282875072211, vz : 0.0005889759631827474, rollspeed : -0.0040916926227509975, pitchspeed : -0.01711045205593109, yawspeed : 0.0008810326689854264, pose_covariance : [nan, 0.0, 0.0, 0.0, 0.0, 0.0, 0.0, 0.0, 0.0, 0.0, 0.0, 0.0, 9.80908925027372e-45, -0.0, -351.609375, 5.310921179791057e-43, 0.0, 0.0, 1.7263997080481746e-42, 1.1770907100328463e-43, 0.0], velocity_covariance : [nan, 0.0, 0.0, 0.0, 2.3079385707429737e-42, 0.0, 10432.0, 4.591634678053128e-41, -1.6281160740754e+38, 1.1770907100328463e-43, 0.0, 0.0, -1.6280803770344976e+38, 1.1770907100328463e-43, 0.0, 0.0, 0.0, 0.0, nan, nan, 0.0], reset_counter : 0, estimator_type : 2, quality : 100}
LOCAL_POSITION_NED {time_boot_ms : 118198, x : -0.00046874998952262104, y : 4.8828122089616954e-05, z : 0.020600585266947746, vx : 0.001195004559122026, vy : -0.0001860431511886418, vz : 0.0002348947455175221}
ATTITUDE {time_boot_ms : 118198, roll : 0.0003430540964473039, pitch : 0.31068333983421326, yaw : -3.140515089035034, rollspeed : -0.0040916926227509975, pitchspeed : -0.01711045205593109, yawspeed : 0.0008810326689854264}
HIGHRES_IMU {time_usec : 118198643, xacc : -6.552173137664795, yacc : 8.10558032989502, zacc : -9.856877326965332, xgyro : -0.0040916926227509975, ygyro : -0.01711045205593109, zgyro : 0.0008810326689854264, xmag : nan, ymag : nan, zmag : nan, abs_pressure : nan, diff_pressure : nan, pressure_alt : nan, temperature : nan, fields_updated : 63, id : 0}
ACTUATOR_OUTPUT_STATUS {time_usec : 118198643, active : 15, actuator : [0.05000000074505806, 0.05000000074505806, 0.05000000074505806, 0.05000000074505806, 0.0, 0.0, 0.0, 0.0, 0.0, 0.0, 0.0, 0.0, 0.0, 0.0, 0.0, 0.0, 0.0, 0.0, 0.0, 0.0, 0.0, 0.0, 0.0, 0.0, 0.0, 0.0, 0.0, 0.0, 0.0, 0.0, 0.0, 0.0]}
LOCAL_POSITION_NED {time_boot_ms : 118198, x : -0.00046874998952262104, y : 4.8828122089616954e-05, z : 0.020600585266947746, vx : 0.001195004559122026, vy : -0.0001860431511886418, vz : 0.0002348947455175221}
ODOMETRY {time_usec : 118215045, frame_id : 1, child_frame_id : 8, x : -0.00046874998952262104, y : 5.859374869032763e-05, z : 0.020600585266947746, q : [0.0004944581305608153, -0.154712975025177, 8.858881483320147e-05, -0.9879593253135681], vx : -0.000882989726960659, vy : 0.00018636780441738665, vz : 0.0005063675343990326, rollspeed : -0.0037823524326086044, pitchspeed : -0.01402218732982874, yawspeed : 0.0007184767164289951, pose_covariance : [nan, 0.0, 0.0, 0.0, 0.0, 0.0, 0.0, 0.0, 0.0, 0.0, 0.0, 0.0, 9.80908925027372e-45, -0.0, -351.609375, 5.310921179791057e-43, 0.0, 0.0, 1.7263997080481746e-42, 1.1770907100328463e-43, 0.0], velocity_covariance : [nan, 0.0, 0.0, 0.0, 2.3079385707429737e-42, 0.0, 10432.0, 4.591634678053128e-41, -1.6281160740754e+38, 1.1770907100328463e-43, 0.0, 0.0, -1.6280803770344976e+38, 1.1770907100328463e-43, 0.0, 0.0, 0.0, 0.0, nan, nan, 0.0], reset_counter : 0, estimator_type : 2, quality : 100}
ATTITUDE {time_boot_ms : 118215, roll : 0.00034428515937179327, pitch : 0.31067368388175964, yaw : -3.1405375003814697, rollspeed : -0.0037823524326086044, pitchspeed : -0.01402218732982874, yawspeed : 0.0007184767164289951}
HIGHRES_IMU {time_usec : 118215045, xacc : -3.6334991455078125, yacc : 4.643692970275879, zacc : -10.263803482055664, xgyro : -0.0037823524326086044, ygyro : -0.01402218732982874, zgyro : 0.0007184767164289951, xmag : nan, ymag : nan, zmag : nan, abs_pressure : nan, diff_pressure : nan, pressure_alt : nan, temperature : nan, fields_updated : 63, id : 0}
ACTUATOR_OUTPUT_STATUS {time_usec : 118215045, active : 15, actuator : [0.05000000074505806, 0.05000000074505806, 0.05000000074505806, 0.05000000074505806, 0.0, 0.0, 0.0, 0.0, 0.0, 0.0, 0.0, 0.0, 0.0, 0.0, 0.0, 0.0, 0.0, 0.0, 0.0, 0.0, 0.0, 0.0, 0.0, 0.0, 0.0, 0.0, 0.0, 0.0, 0.0, 0.0, 0.0, 0.0]}
ATTITUDE {time_boot_ms : 118221, roll : 0.00035801753983832896, pitch : 0.3107024133205414, yaw : -3.140498638153076, rollspeed : 0.0010061617940664291, pitchspeed : -0.01586059480905533, yawspeed : 0.0006564616924151778}
HIGHRES_IMU {time_usec : 118221842, xacc : -2.9884583950042725, yacc : -0.05175207182765007, zacc : -9.322726249694824, xgyro : 0.0010061617940664291, ygyro : -0.01586059480905533, zgyro : 0.0006564616924151778, xmag : nan, ymag : nan, zmag : nan, abs_pressure : nan, diff_pressure : nan, pressure_alt : nan, temperature : nan, fields_updated : 63, id : 0}
LOCAL_POSITION_NED {time_boot_ms : 118221, x : -0.00046874998952262104, y : 4.8828122089616954e-05, z : 0.020600585266947746, vx : 0.0009630752610974014, vy : 0.0001436213351553306, vz : 0.00034796714317053556}
ODOMETRY {time_usec : 118229097, frame_id : 1, child_frame_id : 8, x : -0.00046874998952262104, y : 5.859374869032763e-05, z : 0.020600585266947746, q : [0.0005038852104917169, -0.15471377968788147, 9.037985000759363e-05, -0.9879592061042786], vx : -0.0009217545157298446, vy : -0.0004747294879052788, vz : 0.0007618090603500605, rollspeed : 0.00541590666398406, pitchspeed : -0.021029530093073845, yawspeed : 0.000263068825006485, pose_covariance : [nan, 0.0, 0.0, 0.0, 0.0, 0.0, 0.0, 0.0, 0.0, 0.0, 0.0, 0.0, 9.80908925027372e-45, -0.0, -351.609375, 5.310921179791057e-43, 0.0, 0.0, 1.7263997080481746e-42, 1.1770907100328463e-43, 0.0], velocity_covariance : [nan, 0.0, 0.0, 0.0, 2.3079385707429737e-42, 0.0, 10432.0, 4.591634678053128e-41, -1.6281160740754e+38, 1.1770907100328463e-43, 0.0, 0.0, -1.6280803770344976e+38, 1.1770907100328463e-43, 0.0, 0.0, 0.0, 0.0, nan, nan, 0.0], reset_counter : 0, estimator_type : 2, quality : 100}
ACTUATOR_OUTPUT_STATUS {time_usec : 118229097, active : 15, actuator : [0.05000000074505806, 0.05000000074505806, 0.05000000074505806, 0.05000000074505806, 0.0, 0.0, 0.0, 0.0, 0.0, 0.0, 0.0, 0.0, 0.0, 0.0, 0.0, 0.0, 0.0, 0.0, 0.0, 0.0, 0.0, 0.0, 0.0, 0.0, 0.0, 0.0, 0.0, 0.0, 0.0, 0.0, 0.0, 0.0]}
ATTITUDE {time_boot_ms : 118229, roll : 0.0003510666429065168, pitch : 0.3106752634048462, yaw : -3.140517473220825, rollspeed : 0.00541590666398406, pitchspeed : -0.021029530093073845, yawspeed : 0.000263068825006485}
HIGHRES_IMU {time_usec : 118229097, xacc : -3.014143466949463, yacc : -0.04906493425369263, zacc : -9.321606636047363, xgyro : 0.00541590666398406, ygyro : -0.021029530093073845, zgyro : 0.000263068825006485, xmag : nan, ymag : nan, zmag : nan, abs_pressure : nan, diff_pressure : nan, pressure_alt : nan, temperature : nan, fields_updated : 63, id : 0}
LOCAL_POSITION_NED {time_boot_ms : 118229, x : -0.00046874998952262104, y : 5.859374869032763e-05, z : 0.020600585266947746, vx : 0.0011100542033091187, vy : 0.00047565545537509024, vz : 0.000443716038716957}
ATTITUDE {time_boot_ms : 118229, roll : 0.0003510666429065168, pitch : 0.3106752634048462, yaw : -3.140517473220825, rollspeed : 0.00541590666398406, pitchspeed : -0.021029530093073845, yawspeed : 0.000263068825006485}
ACTUATOR_OUTPUT_STATUS {time_usec : 118229097, active : 15, actuator : [0.05000000074505806, 0.05000000074505806, 0.05000000074505806, 0.05000000074505806, 0.0, 0.0, 0.0, 0.0, 0.0, 0.0, 0.0, 0.0, 0.0, 0.0, 0.0, 0.0, 0.0, 0.0, 0.0, 0.0, 0.0, 0.0, 0.0, 0.0, 0.0, 0.0, 0.0, 0.0, 0.0, 0.0, 0.0, 0.0]}
ODOMETRY {time_usec : 118229097, frame_id : 1, child_frame_id : 8, x : -0.00046874998952262104, y : 5.859374869032763e-05, z : 0.020600585266947746, q : [0.0005038852104917169, -0.15471377968788147, 9.037985000759363e-05, -0.9879592061042786], vx : -0.0009217545157298446, vy : -0.0004747294879052788, vz : 0.0007618090603500605, rollspeed : 0.00541590666398406, pitchspeed : -0.021029530093073845, yawspeed : 0.000263068825006485, pose_covariance : [nan, 0.0, 0.0, 0.0, 0.0, 0.0, 0.0, 0.0, 0.0, 0.0, 0.0, 0.0, 9.80908925027372e-45, -0.0, -351.609375, 5.310921179791057e-43, 0.0, 0.0, 1.7263997080481746e-42, 1.1770907100328463e-43, 0.0], velocity_covariance : [nan, 0.0, 0.0, 0.0, 2.3079385707429737e-42, 0.0, 10432.0, 4.591634678053128e-41, -1.6281160740754e+38, 1.1770907100328463e-43, 0.0, 0.0, -1.6280803770344976e+38, 1.1770907100328463e-43, 0.0, 0.0, 0.0, 0.0, nan, nan, 0.0], reset_counter : 0, estimator_type : 2, quality : 100}
HIGHRES_IMU {time_usec : 118229097, xacc : -3.014143466949463, yacc : -0.04906493425369263, zacc : -9.321606636047363, xgyro : 0.00541590666398406, ygyro : -0.021029530093073845, zgyro : 0.000263068825006485, xmag : nan, ymag : nan, zmag : nan, abs_pressure : nan, diff_pressure : nan, pressure_alt : nan, temperature : nan, fields_updated : 63, id : 0}
LOCAL_POSITION_NED {time_boot_ms : 118229, x : -0.00046874998952262104, y : 5.859374869032763e-05, z : 0.020600585266947746, vx : 0.0011100542033091187, vy : 0.00047565545537509024, vz : 0.000443716038716957}
ATTITUDE {time_boot_ms : 118229, roll : 0.0003510666429065168, pitch : 0.3106752634048462, yaw : -3.140517473220825, rollspeed : 0.00541590666398406, pitchspeed : -0.021029530093073845, yawspeed : 0.000263068825006485}
HIGHRES_IMU {time_usec : 118229097, xacc : -3.014143466949463, yacc : -0.04906493425369263, zacc : -9.321606636047363, xgyro : 0.00541590666398406, ygyro : -0.021029530093073845, zgyro : 0.000263068825006485, xmag : nan, ymag : nan, zmag : nan, abs_pressure : nan, diff_pressure : nan, pressure_alt : nan, temperature : nan, fields_updated : 63, id : 0}
ACTUATOR_OUTPUT_STATUS {time_usec : 118229097, active : 15, actuator : [0.05000000074505806, 0.05000000074505806, 0.05000000074505806, 0.05000000074505806, 0.0, 0.0, 0.0, 0.0, 0.0, 0.0, 0.0, 0.0, 0.0, 0.0, 0.0, 0.0, 0.0, 0.0, 0.0, 0.0, 0.0, 0.0, 0.0, 0.0, 0.0, 0.0, 0.0, 0.0, 0.0, 0.0, 0.0, 0.0]}
ODOMETRY {time_usec : 118229097, frame_id : 1, child_frame_id : 8, x : -0.00046874998952262104, y : 5.859374869032763e-05, z : 0.020600585266947746, q : [0.0005038852104917169, -0.15471377968788147, 9.037985000759363e-05, -0.9879592061042786], vx : -0.0009217545157298446, vy : -0.0004747294879052788, vz : 0.0007618090603500605, rollspeed : 0.00541590666398406, pitchspeed : -0.021029530093073845, yawspeed : 0.000263068825006485, pose_covariance : [nan, 0.0, 0.0, 0.0, 0.0, 0.0, 0.0, 0.0, 0.0, 0.0, 0.0, 0.0, 9.80908925027372e-45, -0.0, -351.609375, 5.310921179791057e-43, 0.0, 0.0, 1.7263997080481746e-42, 1.1770907100328463e-43, 0.0], velocity_covariance : [nan, 0.0, 0.0, 0.0, 2.3079385707429737e-42, 0.0, 10432.0, 4.591634678053128e-41, -1.6281160740754e+38, 1.1770907100328463e-43, 0.0, 0.0, -1.6280803770344976e+38, 1.1770907100328463e-43, 0.0, 0.0, 0.0, 0.0, nan, nan, 0.0], reset_counter : 0, estimator_type : 2, quality : 100}
LOCAL_POSITION_NED {time_boot_ms : 118229, x : -0.00046874998952262104, y : 5.859374869032763e-05, z : 0.020600585266947746, vx : 0.0011100542033091187, vy : 0.00047565545537509024, vz : 0.000443716038716957}
ATTITUDE {time_boot_ms : 118229, roll : 0.0003510666429065168, pitch : 0.3106752634048462, yaw : -3.140517473220825, rollspeed : 0.00541590666398406, pitchspeed : -0.021029530093073845, yawspeed : 0.000263068825006485}
HIGHRES_IMU {time_usec : 118229097, xacc : -3.014143466949463, yacc : -0.04906493425369263, zacc : -9.321606636047363, xgyro : 0.00541590666398406, ygyro : -0.021029530093073845, zgyro : 0.000263068825006485, xmag : nan, ymag : nan, zmag : nan, abs_pressure : nan, diff_pressure : nan, pressure_alt : nan, temperature : nan, fields_updated : 63, id : 0}
ACTUATOR_OUTPUT_STATUS {time_usec : 118265254, active : 15, actuator : [0.05000000074505806, 0.05000000074505806, 0.05000000074505806, 0.05000000074505806, 0.0, 0.0, 0.0, 0.0, 0.0, 0.0, 0.0, 0.0, 0.0, 0.0, 0.0, 0.0, 0.0, 0.0, 0.0, 0.0, 0.0, 0.0, 0.0, 0.0, 0.0, 0.0, 0.0, 0.0, 0.0, 0.0, 0.0, 0.0]}
LOCAL_POSITION_NED {time_boot_ms : 118265, x : -0.00046874998952262104, y : 5.859374869032763e-05, z : 0.020600585266947746, vx : 0.00095490796957165, vy : 0.0004178106610197574, vz : 0.00035108087467961013}
ATTITUDE {time_boot_ms : 118265, roll : 0.0003510666429065168, pitch : 0.3106752634048462, yaw : -3.140517473220825, rollspeed : 0.004527171608060598, pitchspeed : -0.017918337136507034, yawspeed : 0.0002485505538061261}
HIGHRES_IMU {time_usec : 118265254, xacc : 1.9969587326049805, yacc : -11.32326602935791, zacc : -8.66429328918457, xgyro : 0.004527171608060598, ygyro : -0.017918337136507034, zgyro : 0.0002485505538061261, xmag : nan, ymag : nan, zmag : nan, abs_pressure : nan, diff_pressure : nan, pressure_alt : nan, temperature : nan, fields_updated : 63, id : 0}
ODOMETRY {time_usec : 118265254, frame_id : 1, child_frame_id : 8, x : -0.00046874998952262104, y : 5.859374869032763e-05, z : 0.020600585266947746, q : [0.0005038852104917169, -0.15471377968788147, 9.037985000759363e-05, -0.9879592061042786], vx : -0.0008022951078601182, vy : -0.0004170038446318358, vz : 0.0006261813687160611, rollspeed : 0.004527171608060598, pitchspeed : -0.017918337136507034, yawspeed : 0.0002485505538061261, pose_covariance : [nan, 0.0, 0.0, 0.0, 0.0, 0.0, 0.0, 0.0, 0.0, 0.0, 0.0, 0.0, 9.80908925027372e-45, -0.0, -351.609375, 5.310921179791057e-43, 0.0, 0.0, 1.7263997080481746e-42, 1.1770907100328463e-43, 0.0], velocity_covariance : [nan, 0.0, 0.0, 0.0, 2.3079385707429737e-42, 0.0, 10432.0, 4.591634678053128e-41, -1.6281160740754e+38, 1.1770907100328463e-43, 0.0, 0.0, -1.6280803770344976e+38, 1.1770907100328463e-43, 0.0, 0.0, 0.0, 0.0, nan, nan, 0.0], reset_counter : 0, estimator_type : 2, quality : 100}
ACTUATOR_OUTPUT_STATUS {time_usec : 118265254, active : 15, actuator : [0.05000000074505806, 0.05000000074505806, 0.05000000074505806, 0.05000000074505806, 0.0, 0.0, 0.0, 0.0, 0.0, 0.0, 0.0, 0.0, 0.0, 0.0, 0.0, 0.0, 0.0, 0.0, 0.0, 0.0, 0.0, 0.0, 0.0, 0.0, 0.0, 0.0, 0.0, 0.0, 0.0, 0.0, 0.0, 0.0]}
ATTITUDE {time_boot_ms : 118265, roll : 0.0003510666429065168, pitch : 0.3106752634048462, yaw : -3.140517473220825, rollspeed : 0.004527171608060598, pitchspeed : -0.017918337136507034, yawspeed : 0.0002485505538061261}
HIGHRES_IMU {time_usec : 118265254, xacc : 1.9969587326049805, yacc : -11.32326602935791, zacc : -8.66429328918457, xgyro : 0.004527171608060598, ygyro : -0.017918337136507034, zgyro : 0.0002485505538061261, xmag : nan, ymag : nan, zmag : nan, abs_pressure : nan, diff_pressure : nan, pressure_alt : nan, temperature : nan, fields_updated : 63, id : 0}
LOCAL_POSITION_NED {time_boot_ms : 118265, x : -0.00046874998952262104, y : 5.859374869032763e-05, z : 0.020600585266947746, vx : 0.00095490796957165, vy : 0.0004178106610197574, vz : 0.00035108087467961013}
ODOMETRY {time_usec : 118281650, frame_id : 1, child_frame_id : 8, x : -0.00046874998952262104, y : 4.8828122089616954e-05, z : 0.020600585266947746, q : [0.0005020685493946075, -0.15471428632736206, 8.510643965564668e-05, -0.9879592061042786], vx : -0.0006601513596251607, vy : -0.0003377748071216047, vz : 0.0005434302147477865, rollspeed : 0.0036740486975759268, pitchspeed : -0.014881931245326996, yawspeed : 0.00016852840781211853, pose_covariance : [nan, 0.0, 0.0, 0.0, 0.0, 0.0, 0.0, 0.0, 0.0, 0.0, 0.0, 0.0, 9.80908925027372e-45, -0.0, -351.609375, 5.310921179791057e-43, 0.0, 0.0, 1.7263997080481746e-42, 1.1770907100328463e-43, 0.0], velocity_covariance : [nan, 0.0, 0.0, 0.0, 2.3079385707429737e-42, 0.0, 10432.0, 4.591634678053128e-41, -1.6281160740754e+38, 1.1770907100328463e-43, 0.0, 0.0, -1.6280803770344976e+38, 1.1770907100328463e-43, 0.0, 0.0, 0.0, 0.0, nan, nan, 0.0], reset_counter : 0, estimator_type : 2, quality : 100}
ACTUATOR_OUTPUT_STATUS {time_usec : 118281650, active : 15, actuator : [0.05000000074505806, 0.05000000074505806, 0.05000000074505806, 0.05000000074505806, 0.0, 0.0, 0.0, 0.0, 0.0, 0.0, 0.0, 0.0, 0.0, 0.0, 0.0, 0.0, 0.0, 0.0, 0.0, 0.0, 0.0, 0.0, 0.0, 0.0, 0.0, 0.0, 0.0, 0.0, 0.0, 0.0, 0.0, 0.0]}
ATTITUDE {time_boot_ms : 118281, roll : 0.00033953317324630916, pitch : 0.31067630648612976, yaw : -3.1405231952667236, rollspeed : 0.0036740486975759268, pitchspeed : -0.014881931245326996, yawspeed : 0.00016852840781211853}
HIGHRES_IMU {time_usec : 118288345, xacc : -3.041969060897827, yacc : 0.07389479875564575, zacc : -9.332756996154785, xgyro : -0.003679648507386446, ygyro : -0.015461944043636322, zgyro : 0.0007383202901110053, xmag : nan, ymag : nan, zmag : nan, abs_pressure : nan, diff_pressure : nan, pressure_alt : nan, temperature : nan, fields_updated : 63, id : 0}
LOCAL_POSITION_NED {time_boot_ms : 118288, x : -0.00046874998952262104, y : 4.8828122089616954e-05, z : 0.020600585266947746, vx : 0.001083686132915318, vy : -0.00017781052156351507, vz : 0.00027632713317871094}
HEARTBEAT {type : 2, autopilot : 0, base_mode : 193, custom_mode : 0, system_status : 4, mavlink_version : 3}
ATTITUDE {time_boot_ms : 118295, roll : 0.00033953317324630916, pitch : 0.31067630648612976, yaw : -3.1405231952667236, rollspeed : 0.0016545221442356706, pitchspeed : -0.02031305432319641, yawspeed : 0.0008578351116739213}
HIGHRES_IMU {time_usec : 118295866, xacc : -3.010873317718506, yacc : -0.05506053566932678, zacc : -9.31743335723877, xgyro : 0.0016545221442356706, ygyro : -0.02031305432319641, zgyro : 0.0008578351116739213, xmag : nan, ymag : nan, zmag : nan, abs_pressure : nan, diff_pressure : nan, pressure_alt : nan, temperature : nan, fields_updated : 63, id : 0}
ACTUATOR_OUTPUT_STATUS {time_usec : 118295866, active : 15, actuator : [0.05000000074505806, 0.05000000074505806, 0.05000000074505806, 0.05000000074505806, 0.0, 0.0, 0.0, 0.0, 0.0, 0.0, 0.0, 0.0, 0.0, 0.0, 0.0, 0.0, 0.0, 0.0, 0.0, 0.0, 0.0, 0.0, 0.0, 0.0, 0.0, 0.0, 0.0, 0.0, 0.0, 0.0, 0.0, 0.0]}
ODOMETRY {time_usec : 118295866, frame_id : 1, child_frame_id : 8, x : -0.00046874998952262104, y : 4.8828122089616954e-05, z : 0.020600585266947746, q : [0.0005020685493946075, -0.15471428632736206, 8.510643965564668e-05, -0.9879592061042786], vx : -0.0010376672726124525, vy : -0.00021130117238499224, vz : 0.000766844255849719, rollspeed : 0.0016545221442356706, pitchspeed : -0.02031305432319641, yawspeed : 0.0008578351116739213, pose_covariance : [nan, 0.0, 0.0, 0.0, 0.0, 0.0, 0.0, 0.0, 0.0, 0.0, 0.0, 0.0, 9.80908925027372e-45, -0.0, -351.609375, 5.310921179791057e-43, 0.0, 0.0, 1.7263997080481746e-42, 1.1770907100328463e-43, 0.0], velocity_covariance : [nan, 0.0, 0.0, 0.0, 2.3079385707429737e-42, 0.0, 10432.0, 4.591634678053128e-41, -1.6281160740754e+38, 1.1770907100328463e-43, 0.0, 0.0, -1.6280803770344976e+38, 1.1770907100328463e-43, 0.0, 0.0, 0.0, 0.0, nan, nan, 0.0], reset_counter : 0, estimator_type : 2, quality : 100}
LOCAL_POSITION_NED {time_boot_ms : 118295, x : -0.00046874998952262104, y : 4.8828122089616954e-05, z : 0.020600585266947746, vx : 0.001222212566062808, vy : 0.00021234793530311435, vz : 0.0004129838780499995}
ATTITUDE {time_boot_ms : 118295, roll : 0.00033953317324630916, pitch : 0.31067630648612976, yaw : -3.1405231952667236, rollspeed : 0.0016545221442356706, pitchspeed : -0.02031305432319641, yawspeed : 0.0008578351116739213}
HIGHRES_IMU {time_usec : 118295866, xacc : -3.010873317718506, yacc : -0.05506053566932678, zacc : -9.31743335723877, xgyro : 0.0016545221442356706, ygyro : -0.02031305432319641, zgyro : 0.0008578351116739213, xmag : nan, ymag : nan, zmag : nan, abs_pressure : nan, diff_pressure : nan, pressure_alt : nan, temperature : nan, fields_updated : 63, id : 0}
ACTUATOR_OUTPUT_STATUS {time_usec : 118295866, active : 15, actuator : [0.05000000074505806, 0.05000000074505806, 0.05000000074505806, 0.05000000074505806, 0.0, 0.0, 0.0, 0.0, 0.0, 0.0, 0.0, 0.0, 0.0, 0.0, 0.0, 0.0, 0.0, 0.0, 0.0, 0.0, 0.0, 0.0, 0.0, 0.0, 0.0, 0.0, 0.0, 0.0, 0.0, 0.0, 0.0, 0.0]}
LOCAL_POSITION_NED {time_boot_ms : 118295, x : -0.00046874998952262104, y : 4.8828122089616954e-05, z : 0.020600585266947746, vx : 0.001222212566062808, vy : 0.00021234793530311435, vz : 0.0004129838780499995}
ODOMETRY {time_usec : 118295866, frame_id : 1, child_frame_id : 8, x : -0.00046874998952262104, y : 4.8828122089616954e-05, z : 0.020600585266947746, q : [0.0005020685493946075, -0.15471428632736206, 8.510643965564668e-05, -0.9879592061042786], vx : -0.0010376672726124525, vy : -0.00021130117238499224, vz : 0.000766844255849719, rollspeed : 0.0016545221442356706, pitchspeed : -0.02031305432319641, yawspeed : 0.0008578351116739213, pose_covariance : [nan, 0.0, 0.0, 0.0, 0.0, 0.0, 0.0, 0.0, 0.0, 0.0, 0.0, 0.0, 9.80908925027372e-45, -0.0, -351.609375, 5.310921179791057e-43, 0.0, 0.0, 1.7263997080481746e-42, 1.1770907100328463e-43, 0.0], velocity_covariance : [nan, 0.0, 0.0, 0.0, 2.3079385707429737e-42, 0.0, 10432.0, 4.591634678053128e-41, -1.6281160740754e+38, 1.1770907100328463e-43, 0.0, 0.0, -1.6280803770344976e+38, 1.1770907100328463e-43, 0.0, 0.0, 0.0, 0.0, nan, nan, 0.0], reset_counter : 0, estimator_type : 2, quality : 100}
ATTITUDE {time_boot_ms : 118295, roll : 0.00033953317324630916, pitch : 0.31067630648612976, yaw : -3.1405231952667236, rollspeed : 0.0016545221442356706, pitchspeed : -0.02031305432319641, yawspeed : 0.0008578351116739213}
HIGHRES_IMU {time_usec : 118295866, xacc : -3.010873317718506, yacc : -0.05506053566932678, zacc : -9.31743335723877, xgyro : 0.0016545221442356706, ygyro : -0.02031305432319641, zgyro : 0.0008578351116739213, xmag : nan, ymag : nan, zmag : nan, abs_pressure : nan, diff_pressure : nan, pressure_alt : nan, temperature : nan, fields_updated : 63, id : 0}
ACTUATOR_OUTPUT_STATUS {time_usec : 118295866, active : 15, actuator : [0.05000000074505806, 0.05000000074505806, 0.05000000074505806, 0.05000000074505806, 0.0, 0.0, 0.0, 0.0, 0.0, 0.0, 0.0, 0.0, 0.0, 0.0, 0.0, 0.0, 0.0, 0.0, 0.0, 0.0, 0.0, 0.0, 0.0, 0.0, 0.0, 0.0, 0.0, 0.0, 0.0, 0.0, 0.0, 0.0]}
ATTITUDE {time_boot_ms : 118295, roll : 0.00033953317324630916, pitch : 0.31067630648612976, yaw : -3.1405231952667236, rollspeed : 0.0016545221442356706, pitchspeed : -0.02031305432319641, yawspeed : 0.0008578351116739213}
LOCAL_POSITION_NED {time_boot_ms : 118295, x : -0.00046874998952262104, y : 4.8828122089616954e-05, z : 0.020600585266947746, vx : 0.001222212566062808, vy : 0.00021234793530311435, vz : 0.0004129838780499995}
HIGHRES_IMU {time_usec : 118295866, xacc : -3.010873317718506, yacc : -0.05506053566932678, zacc : -9.31743335723877, xgyro : 0.0016545221442356706, ygyro : -0.02031305432319641, zgyro : 0.0008578351116739213, xmag : nan, ymag : nan, zmag : nan, abs_pressure : nan, diff_pressure : nan, pressure_alt : nan, temperature : nan, fields_updated : 63, id : 0}
ODOMETRY {time_usec : 118295866, frame_id : 1, child_frame_id : 8, x : -0.00046874998952262104, y : 4.8828122089616954e-05, z : 0.020600585266947746, q : [0.0005020685493946075, -0.15471428632736206, 8.510643965564668e-05, -0.9879592061042786], vx : -0.0010376672726124525, vy : -0.00021130117238499224, vz : 0.000766844255849719, rollspeed : 0.0016545221442356706, pitchspeed : -0.02031305432319641, yawspeed : 0.0008578351116739213, pose_covariance : [nan, 0.0, 0.0, 0.0, 0.0, 0.0, 0.0, 0.0, 0.0, 0.0, 0.0, 0.0, 9.80908925027372e-45, -0.0, -351.609375, 5.310921179791057e-43, 0.0, 0.0, 1.7263997080481746e-42, 1.1770907100328463e-43, 0.0], velocity_covariance : [nan, 0.0, 0.0, 0.0, 2.3079385707429737e-42, 0.0, 10432.0, 4.591634678053128e-41, -1.6281160740754e+38, 1.1770907100328463e-43, 0.0, 0.0, -1.6280803770344976e+38, 1.1770907100328463e-43, 0.0, 0.0, 0.0, 0.0, nan, nan, 0.0], reset_counter : 0, estimator_type : 2, quality : 100}
ACTUATOR_OUTPUT_STATUS {time_usec : 118295866, active : 15, actuator : [0.05000000074505806, 0.05000000074505806, 0.05000000074505806, 0.05000000074505806, 0.0, 0.0, 0.0, 0.0, 0.0, 0.0, 0.0, 0.0, 0.0, 0.0, 0.0, 0.0, 0.0, 0.0, 0.0, 0.0, 0.0, 0.0, 0.0, 0.0, 0.0, 0.0, 0.0, 0.0, 0.0, 0.0, 0.0, 0.0]}
ATTITUDE {time_boot_ms : 118332, roll : 0.00035018211929127574, pitch : 0.3106794059276581, yaw : -3.140521764755249, rollspeed : 0.0045096916146576405, pitchspeed : -0.01787610352039337, yawspeed : 0.0002464416902512312}
HIGHRES_IMU {time_usec : 118332144, xacc : 2.3702125549316406, yacc : -12.190863609313965, zacc : -8.591117858886719, xgyro : 0.0045096916146576405, ygyro : -0.01787610352039337, zgyro : 0.0002464416902512312, xmag : nan, ymag : nan, zmag : nan, abs_pressure : nan, diff_pressure : nan, pressure_alt : nan, temperature : nan, fields_updated : 63, id : 0}
LOCAL_POSITION_NED {time_boot_ms : 118332, x : -0.00046874998952262104, y : 5.859374869032763e-05, z : 0.020600585266947746, vx : 0.0009528883965685964, vy : 0.00041583768324926496, vz : 0.00035206315806135535}
ATTITUDE {time_boot_ms : 118332, roll : 0.00035018211929127574, pitch : 0.3106794059276581, yaw : -3.140521764755249, rollspeed : 0.0045096916146576405, pitchspeed : -0.01787610352039337, yawspeed : 0.0002464416902512312}
ODOMETRY {time_usec : 118332144, frame_id : 1, child_frame_id : 8, x : -0.00046874998952262104, y : 5.859374869032763e-05, z : 0.020600585266947746, q : [0.00050177430966869, -0.1547158658504486, 9.028294880408794e-05, -0.9879588484764099], vx : -0.0008000654634088278, vy : -0.0004150367749389261, vz : 0.0006265024421736598, rollspeed : 0.0045096916146576405, pitchspeed : -0.01787610352039337, yawspeed : 0.0002464416902512312, pose_covariance : [nan, 0.0, 0.0, 0.0, 0.0, 0.0, 0.0, 0.0, 0.0, 0.0, 0.0, 0.0, 9.80908925027372e-45, -0.0, -351.609375, 5.310921179791057e-43, 0.0, 0.0, 1.7263997080481746e-42, 1.1770907100328463e-43, 0.0], velocity_covariance : [nan, 0.0, 0.0, 0.0, 2.3079385707429737e-42, 0.0, 10432.0, 4.591634678053128e-41, -1.6281160740754e+38, 1.1770907100328463e-43, 0.0, 0.0, -1.6280803770344976e+38, 1.1770907100328463e-43, 0.0, 0.0, 0.0, 0.0, nan, nan, 0.0], reset_counter : 0, estimator_type : 2, quality : 100}
ACTUATOR_OUTPUT_STATUS {time_usec : 118332144, active : 15, actuator : [0.05000000074505806, 0.05000000074505806, 0.05000000074505806, 0.05000000074505806, 0.0, 0.0, 0.0, 0.0, 0.0, 0.0, 0.0, 0.0, 0.0, 0.0, 0.0, 0.0, 0.0, 0.0, 0.0, 0.0, 0.0, 0.0, 0.0, 0.0, 0.0, 0.0, 0.0, 0.0, 0.0, 0.0, 0.0, 0.0]}
HIGHRES_IMU {time_usec : 118332144, xacc : 2.3702125549316406, yacc : -12.190863609313965, zacc : -8.591117858886719, xgyro : 0.0045096916146576405, ygyro : -0.01787610352039337, zgyro : 0.0002464416902512312, xmag : nan, ymag : nan, zmag : nan, abs_pressure : nan, diff_pressure : nan, pressure_alt : nan, temperature : nan, fields_updated : 63, id : 0}
LOCAL_POSITION_NED {time_boot_ms : 118332, x : -0.00046874998952262104, y : 5.859374869032763e-05, z : 0.020600585266947746, vx : 0.0009528883965685964, vy : 0.00041583768324926496, vz : 0.00035206315806135535}
ATTITUDE {time_boot_ms : 118348, roll : 0.00034410570515319705, pitch : 0.31067678332328796, yaw : -3.1405084133148193, rollspeed : 0.0037660771049559116, pitchspeed : -0.015231016092002392, yawspeed : 0.00017718237359076738}
HIGHRES_IMU {time_usec : 118348188, xacc : 0.05028414726257324, yacc : -4.189296722412109, zacc : -9.614330291748047, xgyro : 0.0037660771049559116, ygyro : -0.015231016092002392, zgyro : 0.00017718237359076738, xmag : nan, ymag : nan, zmag : nan, abs_pressure : nan, diff_pressure : nan, pressure_alt : nan, temperature : nan, fields_updated : 63, id : 0}
ACTUATOR_OUTPUT_STATUS {time_usec : 118348188, active : 15, actuator : [0.05000000074505806, 0.05000000074505806, 0.05000000074505806, 0.05000000074505806, 0.0, 0.0, 0.0, 0.0, 0.0, 0.0, 0.0, 0.0, 0.0, 0.0, 0.0, 0.0, 0.0, 0.0, 0.0, 0.0, 0.0, 0.0, 0.0, 0.0, 0.0, 0.0, 0.0, 0.0, 0.0, 0.0, 0.0, 0.0]}
ODOMETRY {time_usec : 118354960, frame_id : 1, child_frame_id : 8, x : -0.00046874998952262104, y : 4.8828122089616954e-05, z : 0.020600585266947746, q : [0.000508840021211654, -0.15471453964710236, 8.62492379383184e-05, -0.9879590272903442], vx : -0.000960020930506289, vy : 0.0001790230453480035, vz : 0.0005941531853750348, rollspeed : -0.003709447802975774, pitchspeed : -0.01564732752740383, yawspeed : 0.0007533394964411855, pose_covariance : [nan, 0.0, 0.0, 0.0, 0.0, 0.0, 0.0, 0.0, 0.0, 0.0, 0.0, 0.0, 9.80908925027372e-45, -0.0, -351.609375, 5.310921179791057e-43, 0.0, 0.0, 1.7263997080481746e-42, 1.1770907100328463e-43, 0.0], velocity_covariance : [nan, 0.0, 0.0, 0.0, 2.3079385707429737e-42, 0.0, 10432.0, 4.591634678053128e-41, -1.6281160740754e+38, 1.1770907100328463e-43, 0.0, 0.0, -1.6280803770344976e+38, 1.1770907100328463e-43, 0.0, 0.0, 0.0, 0.0, nan, nan, 0.0], reset_counter : 0, estimator_type : 2, quality : 100}
LOCAL_POSITION_NED {time_boot_ms : 118354, x : -0.00046874998952262104, y : 4.8828122089616954e-05, z : 0.020600585266947746, vx : 0.0010958709754049778, vy : -0.0001780398451955989, vz : 0.00027216909802518785}
ATTITUDE {time_boot_ms : 118354, roll : 0.00034410570515319705, pitch : 0.31067678332328796, yaw : -3.1405084133148193, rollspeed : -0.003709447802975774, pitchspeed : -0.01564732752740383, yawspeed : 0.0007533394964411855}
HIGHRES_IMU {time_usec : 118354960, xacc : -3.040996789932251, yacc : 0.07425664365291595, zacc : -9.33444881439209, xgyro : -0.003709447802975774, ygyro : -0.01564732752740383, zgyro : 0.0007533394964411855, xmag : nan, ymag : nan, zmag : nan, abs_pressure : nan, diff_pressure : nan, pressure_alt : nan, temperature : nan, fields_updated : 63, id : 0}
ACTUATOR_OUTPUT_STATUS {time_usec : 118362567, active : 15, actuator : [0.05000000074505806, 0.05000000074505806, 0.05000000074505806, 0.05000000074505806, 0.0, 0.0, 0.0, 0.0, 0.0, 0.0, 0.0, 0.0, 0.0, 0.0, 0.0, 0.0, 0.0, 0.0, 0.0, 0.0, 0.0, 0.0, 0.0, 0.0, 0.0, 0.0, 0.0, 0.0, 0.0, 0.0, 0.0, 0.0]}
ATTITUDE {time_boot_ms : 118362, roll : 0.00034756920649670064, pitch : 0.31067511439323425, yaw : -3.1405279636383057, rollspeed : 0.005004929378628731, pitchspeed : -0.02073383890092373, yawspeed : 0.0003327318700030446}
LOCAL_POSITION_NED {time_boot_ms : 118362, x : -0.00046874998952262104, y : 5.859374869032763e-05, z : 0.020600585266947746, vx : 0.0011164516909047961, vy : 0.0004564503615256399, vz : 0.00043400286813266575}
HIGHRES_IMU {time_usec : 118362567, xacc : -2.9949212074279785, yacc : -0.08664624392986298, zacc : -9.31928539276123, xgyro : 0.005004929378628731, ygyro : -0.02073383890092373, zgyro : 0.0003327318700030446, xmag : nan, ymag : nan, zmag : nan, abs_pressure : nan, diff_pressure : nan, pressure_alt : nan, temperature : nan, fields_updated : 63, id : 0}
ODOMETRY {time_usec : 118362567, frame_id : 1, child_frame_id : 8, x : -0.00046874998952262104, y : 5.859374869032763e-05, z : 0.020600585266947746, q : [0.0004990326124243438, -0.15471376478672028, 8.945447916630656e-05, -0.987959086894989], vx : -0.0009307903237640858, vy : -0.00045552366646006703, vz : 0.0007545170956291258, rollspeed : 0.005004929378628731, pitchspeed : -0.02073383890092373, yawspeed : 0.0003327318700030446, pose_covariance : [nan, 0.0, 0.0, 0.0, 0.0, 0.0, 0.0, 0.0, 0.0, 0.0, 0.0, 0.0, 9.80908925027372e-45, -0.0, -351.609375, 5.310921179791057e-43, 0.0, 0.0, 1.7263997080481746e-42, 1.1770907100328463e-43, 0.0], velocity_covariance : [nan, 0.0, 0.0, 0.0, 2.3079385707429737e-42, 0.0, 10432.0, 4.591634678053128e-41, -1.6281160740754e+38, 1.1770907100328463e-43, 0.0, 0.0, -1.6280803770344976e+38, 1.1770907100328463e-43, 0.0, 0.0, 0.0, 0.0, nan, nan, 0.0], reset_counter : 0, estimator_type : 2, quality : 100}
ACTUATOR_OUTPUT_STATUS {time_usec : 118362567, active : 15, actuator : [0.05000000074505806, 0.05000000074505806, 0.05000000074505806, 0.05000000074505806, 0.0, 0.0, 0.0, 0.0, 0.0, 0.0, 0.0, 0.0, 0.0, 0.0, 0.0, 0.0, 0.0, 0.0, 0.0, 0.0, 0.0, 0.0, 0.0, 0.0, 0.0, 0.0, 0.0, 0.0, 0.0, 0.0, 0.0, 0.0]}
ATTITUDE {time_boot_ms : 118362, roll : 0.00034756920649670064, pitch : 0.31067511439323425, yaw : -3.1405279636383057, rollspeed : 0.005004929378628731, pitchspeed : -0.02073383890092373, yawspeed : 0.0003327318700030446}
HIGHRES_IMU {time_usec : 118362567, xacc : -2.9949212074279785, yacc : -0.08664624392986298, zacc : -9.31928539276123, xgyro : 0.005004929378628731, ygyro : -0.02073383890092373, zgyro : 0.0003327318700030446, xmag : nan, ymag : nan, zmag : nan, abs_pressure : nan, diff_pressure : nan, pressure_alt : nan, temperature : nan, fields_updated : 63, id : 0}
LOCAL_POSITION_NED {time_boot_ms : 118362, x : -0.00046874998952262104, y : 5.859374869032763e-05, z : 0.020600585266947746, vx : 0.0011164516909047961, vy : 0.0004564503615256399, vz : 0.00043400286813266575}
ODOMETRY {time_usec : 118362567, frame_id : 1, child_frame_id : 8, x : -0.00046874998952262104, y : 5.859374869032763e-05, z : 0.020600585266947746, q : [0.0004990326124243438, -0.15471376478672028, 8.945447916630656e-05, -0.987959086894989], vx : -0.0009307903237640858, vy : -0.00045552366646006703, vz : 0.0007545170956291258, rollspeed : 0.005004929378628731, pitchspeed : -0.02073383890092373, yawspeed : 0.0003327318700030446, pose_covariance : [nan, 0.0, 0.0, 0.0, 0.0, 0.0, 0.0, 0.0, 0.0, 0.0, 0.0, 0.0, 9.80908925027372e-45, -0.0, -351.609375, 5.310921179791057e-43, 0.0, 0.0, 1.7263997080481746e-42, 1.1770907100328463e-43, 0.0], velocity_covariance : [nan, 0.0, 0.0, 0.0, 2.3079385707429737e-42, 0.0, 10432.0, 4.591634678053128e-41, -1.6281160740754e+38, 1.1770907100328463e-43, 0.0, 0.0, -1.6280803770344976e+38, 1.1770907100328463e-43, 0.0, 0.0, 0.0, 0.0, nan, nan, 0.0], reset_counter : 0, estimator_type : 2, quality : 100}
ATTITUDE {time_boot_ms : 118362, roll : 0.00034756920649670064, pitch : 0.31067511439323425, yaw : -3.1405279636383057, rollspeed : 0.005004929378628731, pitchspeed : -0.02073383890092373, yawspeed : 0.0003327318700030446}
ACTUATOR_OUTPUT_STATUS {time_usec : 118362567, active : 15, actuator : [0.05000000074505806, 0.05000000074505806, 0.05000000074505806, 0.05000000074505806, 0.0, 0.0, 0.0, 0.0, 0.0, 0.0, 0.0, 0.0, 0.0, 0.0, 0.0, 0.0, 0.0, 0.0, 0.0, 0.0, 0.0, 0.0, 0.0, 0.0, 0.0, 0.0, 0.0, 0.0, 0.0, 0.0, 0.0, 0.0]}
HIGHRES_IMU {time_usec : 118362567, xacc : -2.9949212074279785, yacc : -0.08664624392986298, zacc : -9.31928539276123, xgyro : 0.005004929378628731, ygyro : -0.02073383890092373, zgyro : 0.0003327318700030446, xmag : nan, ymag : nan, zmag : nan, abs_pressure : nan, diff_pressure : nan, pressure_alt : nan, temperature : nan, fields_updated : 63, id : 0}
LOCAL_POSITION_NED {time_boot_ms : 118362, x : -0.00046874998952262104, y : 5.859374869032763e-05, z : 0.020600585266947746, vx : 0.0011164516909047961, vy : 0.0004564503615256399, vz : 0.00043400286813266575}
HEARTBEAT {type : 2, autopilot : 0, base_mode : 193, custom_mode : 0, system_status : 4, mavlink_version : 3}
ATTITUDE {time_boot_ms : 118362, roll : 0.00034756920649670064, pitch : 0.31067511439323425, yaw : -3.1405279636383057, rollspeed : 0.005004929378628731, pitchspeed : -0.02073383890092373, yawspeed : 0.0003327318700030446}
HIGHRES_IMU {time_usec : 118362567, xacc : -2.9949212074279785, yacc : -0.08664624392986298, zacc : -9.31928539276123, xgyro : 0.005004929378628731, ygyro : -0.02073383890092373, zgyro : 0.0003327318700030446, xmag : nan, ymag : nan, zmag : nan, abs_pressure : nan, diff_pressure : nan, pressure_alt : nan, temperature : nan, fields_updated : 63, id : 0}
ACTUATOR_OUTPUT_STATUS {time_usec : 118362567, active : 15, actuator : [0.05000000074505806, 0.05000000074505806, 0.05000000074505806, 0.05000000074505806, 0.0, 0.0, 0.0, 0.0, 0.0, 0.0, 0.0, 0.0, 0.0, 0.0, 0.0, 0.0, 0.0, 0.0, 0.0, 0.0, 0.0, 0.0, 0.0, 0.0, 0.0, 0.0, 0.0, 0.0, 0.0, 0.0, 0.0, 0.0]}
ODOMETRY {time_usec : 118362567, frame_id : 1, child_frame_id : 8, x : -0.00046874998952262104, y : 5.859374869032763e-05, z : 0.020600585266947746, q : [0.0004990326124243438, -0.15471376478672028, 8.945447916630656e-05, -0.987959086894989], vx : -0.0009307903237640858, vy : -0.00045552366646006703, vz : 0.0007545170956291258, rollspeed : 0.005004929378628731, pitchspeed : -0.02073383890092373, yawspeed : 0.0003327318700030446, pose_covariance : [nan, 0.0, 0.0, 0.0, 0.0, 0.0, 0.0, 0.0, 0.0, 0.0, 0.0, 0.0, 9.80908925027372e-45, -0.0, -351.609375, 5.310921179791057e-43, 0.0, 0.0, 1.7263997080481746e-42, 1.1770907100328463e-43, 0.0], velocity_covariance : [nan, 0.0, 0.0, 0.0, 2.3079385707429737e-42, 0.0, 10432.0, 4.591634678053128e-41, -1.6281160740754e+38, 1.1770907100328463e-43, 0.0, 0.0, -1.6280803770344976e+38, 1.1770907100328463e-43, 0.0, 0.0, 0.0, 0.0, nan, nan, 0.0], reset_counter : 0, estimator_type : 2, quality : 100}
ENCAPSULATED_DATA {seqnr : 0, data : [1, 128, 206, 1, 0, 0, 0, 0, 0, 98, 81, 0, 0, 0, 0, 0, 0, 255, 255, 255, 255, 255, 255, 255, 255, 0, 0, 0, 0, 255, 255, 255, 255, 255, 255, 255, 255, 0, 0, 0, 0, 0, 0, 0, 0, 0, 0, 0, 0, 0, 0, 0, 0, 0, 0, 0, 0, 0, 0, 0, 0, 0, 0, 0, 0, 0, 0, 0, 0, 0, 0, 0, 0, 0, 0, 0, 0, 0, 0, 0, 0, 0, 0, 0, 0, 0, 0, 0, 0, 0, 0, 0, 0, 0, 0, 0, 0, 0, 0, 0, 0, 0, 0, 0, 0, 0, 0, 0, 0, 0, 0, 0, 0, 0, 0, 0, 0, 0, 0, 0, 0, 0, 0, 0, 0, 0, 0, 0, 0, 0, 0, 0, 0, 0, 0, 0, 0, 0, 0, 0, 0, 0, 0, 0, 0, 0, 0, 0, 0, 0, 0, 0, 0, 0, 0, 0, 0, 0, 0, 0, 0, 0, 0, 0, 0, 0, 0, 0, 0, 0, 0, 0, 0, 0, 0, 0, 0, 0, 0, 0, 0, 0, 0, 0, 0, 0, 0, 0, 0, 0, 111, 6, 0, 0, 0, 0, 0, 0, 0, 0, 35, 70, 255, 127, 0, 0, 32, 248, 183, 128, 84, 0, 0, 0, 0, 0, 0, 0, 0, 0, 0, 0, 192, 246, 183, 128, 84, 0, 0, 0, 0, 0, 0, 0, 0, 0, 0, 0, 0, 0, 0, 0, 0, 0, 0, 0, 255, 255, 255, 255, 255, 255, 255]}
LOCAL_POSITION_NED {time_boot_ms : 118398, x : -0.00046874998952262104, y : 4.8828122089616954e-05, z : 0.020600585266947746, vx : 0.0011937342351302505, vy : -0.00018568414088804275, vz : 0.00023542880080640316}
ATTITUDE {time_boot_ms : 118398, roll : 0.0003443733148742467, pitch : 0.31068384647369385, yaw : -3.1405117511749268, rollspeed : -0.0040811714716255665, pitchspeed : -0.01709406077861786, yawspeed : 0.0008792129810899496}
HIGHRES_IMU {time_usec : 118398797, xacc : -8.418100357055664, yacc : 12.361821174621582, zacc : -10.129127502441406, xgyro : -0.0040811714716255665, ygyro : -0.01709406077861786, zgyro : 0.0008792129810899496, xmag : nan, ymag : nan, zmag : nan, abs_pressure : nan, diff_pressure : nan, pressure_alt : nan, temperature : nan, fields_updated : 63, id : 0}
ACTUATOR_OUTPUT_STATUS {time_usec : 118398797, active : 15, actuator : [0.05000000074505806, 0.05000000074505806, 0.05000000074505806, 0.05000000074505806, 0.0, 0.0, 0.0, 0.0, 0.0, 0.0, 0.0, 0.0, 0.0, 0.0, 0.0, 0.0, 0.0, 0.0, 0.0, 0.0, 0.0, 0.0, 0.0, 0.0, 0.0, 0.0, 0.0, 0.0, 0.0, 0.0, 0.0, 0.0]}
ODOMETRY {time_usec : 118398797, frame_id : 1, child_frame_id : 8, x : -0.00046874998952262104, y : 4.8828122089616954e-05, z : 0.020600585266947746, q : [0.0005073462962172925, -0.15471799671649933, 8.660998719278723e-05, -0.987958550453186], vx : -0.0010644192807376385, vy : 0.00018677151820156723, vz : 0.0005890967440791428, rollspeed : -0.0040811714716255665, pitchspeed : -0.01709406077861786, yawspeed : 0.0008792129810899496, pose_covariance : [nan, 0.0, 0.0, 0.0, 0.0, 0.0, 0.0, 0.0, 0.0, 0.0, 0.0, 0.0, 9.80908925027372e-45, -0.0, -351.609375, 5.310921179791057e-43, 0.0, 0.0, 1.7263997080481746e-42, 1.1770907100328463e-43, 0.0], velocity_covariance : [nan, 0.0, 0.0, 0.0, 2.3079385707429737e-42, 0.0, 10432.0, 4.591634678053128e-41, -1.6281160740754e+38, 1.1770907100328463e-43, 0.0, 0.0, -1.6280803770344976e+38, 1.1770907100328463e-43, 0.0, 0.0, 0.0, 0.0, nan, nan, 0.0], reset_counter : 0, estimator_type : 2, quality : 100}
LOCAL_POSITION_NED {time_boot_ms : 118398, x : -0.00046874998952262104, y : 4.8828122089616954e-05, z : 0.020600585266947746, vx : 0.0011937342351302505, vy : -0.00018568414088804275, vz : 0.00023542880080640316}
ATTITUDE {time_boot_ms : 118398, roll : 0.0003443733148742467, pitch : 0.31068384647369385, yaw : -3.1405117511749268, rollspeed : -0.0040811714716255665, pitchspeed : -0.01709406077861786, yawspeed : 0.0008792129810899496}
HIGHRES_IMU {time_usec : 118398797, xacc : -8.418100357055664, yacc : 12.361821174621582, zacc : -10.129127502441406, xgyro : -0.0040811714716255665, ygyro : -0.01709406077861786, zgyro : 0.0008792129810899496, xmag : nan, ymag : nan, zmag : nan, abs_pressure : nan, diff_pressure : nan, pressure_alt : nan, temperature : nan, fields_updated : 63, id : 0}
ACTUATOR_OUTPUT_STATUS {time_usec : 118414788, active : 15, actuator : [0.05000000074505806, 0.05000000074505806, 0.05000000074505806, 0.05000000074505806, 0.0, 0.0, 0.0, 0.0, 0.0, 0.0, 0.0, 0.0, 0.0, 0.0, 0.0, 0.0, 0.0, 0.0, 0.0, 0.0, 0.0, 0.0, 0.0, 0.0, 0.0, 0.0, 0.0, 0.0, 0.0, 0.0, 0.0, 0.0]}
ATTITUDE {time_boot_ms : 118421, roll : 0.0003454416000749916, pitch : 0.3106740415096283, yaw : -3.140533685684204, rollspeed : 0.0038855504244565964, pitchspeed : -0.016376759856939316, yawspeed : 0.0001839137403294444}
